{
    "products":[
        {
            "id": 0,
            "name": "Back Pain Tips",
            "description":"Learn how to relieve back pain with some gentle back exercises, activities and learn how Voltaren helps you with pain relief.",
            
            "location": {
              "country": "USA",
              "state": "California",
              "city": "Napa"
            },
            "active": false
          }, {
            "id": 3,
            "name": "How Does Voltaren Work?",
            "description":" Find out how Voltaren's range of pain relieving products work to help with pain",
            
            "location": {
              "country": "Germany",
              "state": "",
              "city": "Berlin"
            },
            "active": false
          }, {
            "id": 4,
            "name": "Osteoarthritis",
            "description": "Watch Janâ€™s story to learn how to manage osteoarthritis pain through exercise and everyday movements.",
            "location": {
              "country": "USA",
              "state": "Michigan",
              "city": "Detroit"
            },
            "active": false
          },
          {
            "id": 5,
            "name": "Dental Pain",
            "description": "Wisdom tooth pain and other types of toothache pain are hard to ignore. Learn about toothache causes and how to get rid of tooth pain with Voltaren.",
            "location": {
              "country": "USA",
              "state": "Michigan",
              "city": "Detroit"
            },
            "active": false
          },
          {
            "id": 6,
            "name": "Neck Pain",
            "description": "Neck pain can be the result of stress, tension and poor posture. Learn what causes neck pain and how to effectively treat neck pain.",
            "location": {
              "country": "USA",
              "state": "Michigan",
              "city": "Detroit"
            },
            "active": false
          }
    ]
}